Hello Jenna
----------------------Begin------------------------
,M,0.00,N,0.00,K,A*22
$GNGGA,212818.963,4339.5777,N,07923.8020,W,1,6,1.75,117.1,M,-35.1,M,,*7F
$GPGSA,A,3,11,06,17,19,,,,,,,,,2.01,1.75,0.98*0B
$BDGSA,A,3,14,11,,,,,,,,,,,2.01,1.75,0.98*17
$GPGSV,3,1,09,06,77,013,42,19,64,082,39,11,51,253,35,12,39,305,19*7B
$GPGSV,3,2,09,17,38,101,417.1,M,-35.1,M,,*74
$GPGSA,A,3,11,06,17,19,,,,,,,,,2.01,1.75,0.98*0B
$BDGSA,A,3,14,11,,,,,,,,,,,2.01,1.75,0.98*17
$GPGSV,3,1,09,06,77,013,45,19,64,082,44,11,51,253,42,12,39,305,32*7F
$GPGSV,3,2,09,17,38,101,44,09,09,105,23,46,,,28,03,,,24*74
$GPGSV,3,3,09,20,,,22*72
$BDGSV,1,1,02,11,41,075,43,14,33,134,36*6C
$GNGLL,4339.5777,N,07923.8020,W,212820.963,A,A*58
$GPGRS,212820.963,1,-11.1,6.43,-1.32,1.95,-0.99,0.26,,,,,,*5D
$GPGST,212820.963,5.0,23,4.1,153.6,21,11,84*6F
$PMTK001,255,2*33

----------------------End------------------------
----------------------Begin------------------------
$GNZDA,212821.363,04,04,2023,,*47
$GNRMC,212821.363,A,4339.5777,N,07923.8020,W,0.00,112.03,040423,,,A*64
$GNVTG,112.03,T,,M,0.00,N,0.00,K,A*22
$GNGGA,212821.363,4339.5777,N,07923.8020,W,1,6,1.75,117.1,M,-35.1,M,,*7F
$GPGSA,A,3,11,06,17,19,,,,,,,,,2.01,1.75,0.98*0B
$BDGSA,A,3,14,11,,
----------------------End------------------------
----------------------Begin------------------------
$GNZDA,212826.163,04,04,2023,,*42
$GNRMC,212826.163,A,4339.5804,N,07923.7978,W,1.12,110.76,040423,,,A*63
$GNVTG,110.76,T,,M,1.12,N,2.08,K,A*2A
$GNGGA,212826.163,4339.5804,N,07923.7978,W,1,6,1.75,123.3,M,-35.1,M,,*7F
$GPGSA,A,3,11,06,17,19,,,,,,,,,2.01,1.75,0.98*0B
$BDGSA,A,3,14,11,,
----------------------End------------------------
----------------------Begin------------------------
$GNZDA,212831.363,04,04,2023,,*46
$GNRMC,212831.363,A,4339.5800,N,07923.7982,W,1.24,100.27,040423,,,A*66
$GNVTG,100.27,T,,M,1.24,N,2.30,K,A*21
$GNGGA,212831.363,4339.5800,N,07923.7982,W,1,6,1.75,123.5,M,-35.1,M,,*7C
$GPGSA,A,3,11,06,17,19,,,,,,,,,2.01,1.75,0.98*0B
$BDGSA,A,3,14,11,,,,,,,,,,,,,2.01,1.75,0.98*17
$GPGSV,3,1,09,06,77,013,42,19,64,082,45,11,51,253,29,12,39,305,32*74
$GPGSV,3,2,09,17,38,101,37,09,09,105,19,49,,,,03,,,22*7A
$GPGSV,3,3,09,20,,,19*7A
$BDGSV,1,1,02,11,41,075,44,14,33,134,36*6B
$GNGLL,4339.5790,N,07923.7985,W,212836.163,A,A*57
$GPGRS,212836.163,1,3.02,-1.11,0.79,2.12,-1.20,0.42,,,,,,*7C
$GPGST,212836.163,3.9,22,4.1,152.9,20,11,82*67

----------------------End------------------------
----------------------Begin------------------------
$GNZDA,212836.563,04,04,2023,,*47
$GNRMC,212836.563,A,4339.5790,N,07923.7985,W,0.00,182.45,040423,,,A*6F
$GNVTG,182.45,T,,M,0.00,N,0.00,K,A*29
$GNGGA,212836.563,4339.5790,N,07923.7985,W,1,6,1.75,123.7,M,-35.1,M,,*7E
$GPGSA,A,3,11,06,17,19,,,,,,,,,2.01,1.75,0.98*0B
$BDGSA,A,3,14,11,,
----------------------End------------------------
----------------------Begin------------------------
$GNZDA,212841.363,04,04,2023,,*41
$GNRMC,212841.363,A,4339.5786,N,07923.7988,W,0.64,243.42,040423,,,A*68
$GNVTG,243.42,T,,M,0.64,N,1.19,K,A*2B
$GNGGA,212841.363,4339.5786,N,07923.7988,W,1,6,1.75,123.5,M,-35.1,M,,*70
$GPGSA,A,3,11,06,17,19,,,,,,,,,2.01,1.75,0.98*0B
$BDGSA,A,3,14,11,,
----------------------End------------------------
----------------------Begin------------------------
$GNZDA,212846.563,04,04,2023,,*40
$GNRMC,212846.563,A,4339.5780,N,07923.7987,W,0.00,112.98,040423,,,A*62
$GNVTG,112.98,T,,M,0.00,N,0.00,K,A*20
$GNGGA,212846.563,4339.5780,N,07923.7987,W,1,6,1.75,123.1,M,-35.1,M,,*7C
$GPGSA,A,3,11,06,17,19,,,,,,,,,2.01,1.75,0.98*0B
$BDGSA,A,3,14,11,,.363,A,4339.5779,N,07923.7997,W,0.35,271.63,040423,,,A*61
$GNVTG,271.63,T,,M,0.35,N,0.65,K,A*27
$GNGGA,212851.363,4339.5779,N,07923.7997,W,1,6,1.75,122.5,M,-35.1,M,,*7E
$GPGSA,A,3,11,06,17,19,,,,,,,,,2.01,1.75,0.98*0B
$BDGSA,A,3,14,11,,,,,,,,,,,2.01,1.75,0.98*17
$GPGSV,3,1,09,06,77,013,47,19,64,082,46,11,51,253,42,12,39,305,26*7A
$GPGSV,3,2,09,17,38,101,46,48,17,243,,09,09,105,21,03,,,21*46
$GPGSV,3,3,09,20,,,24*74
$BDGSV,1,1,02,11,41,075,46,14,34,134,44*6B
$GNGLL,4339.5779,N,07923.7997,W,212851.363,A,A*50
$GPGRS,212851.363,1,1.37,-2.14,0.79,1.40,-1.26,0.97,,,,,,*77
$GPGST,212851.363,2.9,22,3.9,153.2,20,10,81*62

----------------------End------------------------
----------------------Begin------------------------
$GNZDA,212851.763,04,04,2023,,*44
$GNRMC,212851.763,A,4339.5779,N,07923.7999,W,0.41,268.46,040423,,,A*67
$GNVTG,268.46,T,,M,0.41,N,0.76,K,A*29
$GNGGA,212851.763,4339.5779,N,07923.7999,W,1,6,1.76,122.4,M,-35.1,M,,*76
$GPGSA,A,3,11,06,17,19,,,,,,,,,2.01,1.76,0.98*08
$BDGSA,A,3,14,11,,
----------------------End------------------------
----------------------Begin------------------------
$GNZDA,212856.563,04,04,2023,,*41
$GNRMC,212856.563,A,4339.5779,N,07923.7987,W,1.05,86.84,040423,,,A*50
$GNVTG,86.84,T,,M,1.05,N,1.94,K,A*19
$GNGGA,212856.563,4339.5779,N,07923.7987,W,1,6,1.76,121.3,M,-35.1,M,,*78
$GPGSA,A,3,11,06,17,19,,,,,,,,,2.01,1.76,0.98*08
$BDGSA,A,3,14,11,,,,
----------------------End------------------------
----------------------Begin------------------------
$GNZDA,212901.763,04,04,2023,,*40
$GNRMC,212901.763,A,4339.5790,N,07923.7930,W,2.86,97.59,040423,,,A*52
$GNVTG,97.59,T,,M,2.86,N,5.31,K,A*1A
$GNGGA,212901.763,4339.5790,N,07923.7930,W,1,5,2.01,119.5,M,-35.1,M,,*7F
$GPGSA,A,3,11,06,17,19,,,,,,,,,2.24,2.01,0.99*0D
$BDGSA,A,3,14,,,,,,,SA,A,3,14,,,,,,,,,,,,2.24,2.01,0.99*11
$GPGSV,3,1,10,06,76,014,43,19,63,083,33,11,51,253,41,12,39,305,42*75
$GPGSV,3,2,10,17,38,101,28,09,09,105,25,33,09,108,,03,,,24*48
$GPGSV,3,3,10,20,,,40,25,,,31*7B
$BDGSV,1,1,02,11,41,075,24,14,34,134,44*6F
$GNGLL,4339.5764,N,07923.7903,W,212906.563,A,A*54
$GPGRS,212906.563,1,-0.21,-0.69,-15.0,0.57,0.22,,,,,,,*49
$GPGST,212906.563,3.0,26,5.5,159.8,25,10,97*63

----------------------End------------------------
----------------------Begin------------------------
$GNZDA,212906.963,04,04,2023,,*49
$GNRMC,212906.963,A,4339.5760,N,07923.7905,W,3.27,175.61,040423,,,A*6E
$GNVTG,175.61,T,,M,3.27,N,6.06,K,A*21
$GNGGA,212906.963,4339.5760,N,07923.7905,W,1,6,1.76,118.3,M,-35.1,M,,*78
$GPGSA,A,3,11,06,17,19,,,,,,,,,2.01,1.76,0.98*08
$BDGSA,A,3,14,11,,
----------------------End------------------------
----------------------Begin------------------------
$GNZDA,212911.763,04,04,2023,,*41
$GNRMC,212911.763,A,4339.5724,N,07923.7905,W,2.74,135.95,040423,,,A*6E
$GNVTG,135.95,T,,M,2.74,N,5.07,K,A*2B
$GNGGA,212911.763,4339.5724,N,07923.7905,W,1,6,1.76,118.9,M,-35.1,M,,*7A
$GPGSA,A,3,11,06,17,19,,,,,,,,,2.01,1.76,0.98*08
$BDGSA,A,3,14,11,,
----------------------End------------------------
----------------------Begin------------------------
$GNZDA,212916.963,04,04,2023,,*48
$GNRMC,212916.963,A,4339.5668,N,07923.7887,W,3.23,167.08,040423,,,A*65
$GNVTG,167.08,T,,M,3.23,N,5.98,K,A*2D
$GNGGA,212916.963,4339.5668,N,07923.7887,W,1,6,1.76,120.1,M,-35.1,M,,*72
$GPGSA,A,3,11,06,17,19,,,,,,,,,2.01,1.76,0.98*08
$BDGSA,A,3,14,11,,
----------------------End------------------------
----------------------Begin------------------------
$GNZDA,212921.763,04,04,2023,,*4,A,3,11,06,17,19,,,,,,,,,2.01,1.76,0.98*08
$BDGSA,A,3,14,11,,,,,,,,,,,2.01,1.76,0.98*14
$GPGSV,3,1,11,06,76,014,41,19,63,083,33,11,51,253,43,12,39,305,42*74
$GPGSV,3,2,11,17,38,101,41,09,09,105,24,14,02,158,,36,,,*4C
$GPGSV,3,3,11,03,,,21,20,,,30,25,,,
----------------------End------------------------
----------------------Begin------------------------
$GNZDA,212926.963,04,04,2023,,*4B
$GNRMC,212926.963,A,4339.5614,N,07923.7860,W,2.38,176.81,040423,,,A*6E
$GNVTG,176.81,T,,M,2.38,N,4.41,K,A*22
$GNGGA,212926.963,4339.5614,N,07923.7860,W,1,7,1.52,116.3,M,-35.1,M,,*73
$GPGSA,A,3,11,06,17,19,12,,,,,,,,1.78,1.52,0.94*0C
$BDGSA,A,3,14,11
----------------------End------------------------
----------------------Begin------------------------
$GNZDA,212932.163,04,04,2023,,*46
$GNRMC,212932.163,A,4339.5580,N,07923.7843,W,3.47,173.02,040423,,,A*6B
$GNVTG,173.02,T,,M,3.47,N,6.42,K,A*24
$GNGGA,212932.163,4339.5580,N,07923.7843,W,1,7,1.52,113.5,M,-35.1,M,,*72
$GPGSA,A,3,11,06,17,19,12,,,,,,,,1.79,1.52,0.94*0D
$BDGSA,A,3,14,11
----------------------End------------------------
----------------------Begin------------------------
$GNZDA,212936.963,04,04,2023,,*4923.7825,W,1,7,1.52,111.4,M,-35.1,M,,*76
$GPGSA,A,3,11,06,17,19,12,,,,,,,,1.79,1.52,0.94*0D
$BDGSA,A,3,14,11,,,,,,,,,,,1.79,1.52,0.94*12
$GPGSV,3,1,11,06,76,014,42,19,63,083,39,11,51,253,42,12,39,305,43*7D
$GPGSV,3,2,11,17,38,101,37,09,09,105,21,14,02,
----------------------End------------------------
----------------------Begin------------------------
$GNZDA,212942.163,04,04,2023,,*41
$GNRMC,212942.163,A,4339.5511,N,07923.7805,W,2.99,154.32,040423,,,A*62
$GNVTG,154.32,T,,M,2.99,N,5.54,K,A*24
$GNGGA,212942.163,4339.5511,N,07923.7805,W,1,7,1.52,110.3,M,-35.1,M,,*7A
$GPGSA,A,3,11,06,17,19,12,,,,,,,,1.79,1.52,0.94*0D
$BDGSA,A,3,14,11
----------------------End------------------------
----------------------Begin------------------------
$GNZDA,212947.363,04,04,2023,,*46
$GNRMC,212947.363,A,4339.5481,N,07923.7774,W,3.03,116.33,040423,,,A*61
$GNVTG,116.33,T,,M,3.03,N,5.62,K,A*24
$GNGGA,212947.363,4339.5481,N,07923.7774,W,1,6,1.55,110.9,M,-35.1,M,,*70
$GPGSA,A,3,11,06,19,12,,,,,,,,,1.82,1.55,0.95*09
$BDGSA,A,3,14,11,,
----------------------End------------------------
----------------------Begin------------------------
$GNZDA,212952.163,04,04,2023,,*40
$GNRMC,212952.163,A,4339.5461,N,07923.7730,W,2.66,114.52,040423,,,A*6E
$GNVTG,114.52,T,,M,2.66,N,4.93,K,A*2C
$GNGGA,212952.163,4339.5461,N,07923.7730,W,1,6,1.55,111.2,M,-35.1,M,,*72
$GPGSA,A,3,11,06,19,12,,,,,,,,,1.82,1.55,0.95*09
$BDGSA,A,3,14,11,,
----------------------End------------------------
----------------------Begin------------------------
$GNZDA,212957.363,04,04,2023,,*47
$GNRMC,212957.363,A,4339.5415,N,07923.7719,W,3.54,164.67,040423,,,A*60
$GNVTG,164.67,T,,M,3.54,N,6.56,K,A*26
$GNGGA,212957.363,4339.5415,N,07923.7719,W,1,5,1.86,111.1,M,-35.1,M,,*73
$GPGSA,A,3,11,06,19,12,,,,,,,,,2.10,1.86,0.96*0C
$BDGSA,A,3,14,,,,,A,213002.163,4339.5374,N,07923.7699,W,1,6,2.09,110.3,M,-35.1,M,,*74
$GPGSA,A,3,11,06,17,19,12,,,,,,,,2.29,2.09,0.95*07
$BDGSA,A,3,11,,,,,,,,,,,,2.29,2.09,0.95*1D
$GPGSV,3,1,11,06,76,015,44,19,63,084,33,11,52,254,42,12,40,304,42*7D
$GPGSV,3,2,11,17,38,102,29,09,10,104,20,14,01,158,,46,,,37*4C
$GPGSV,3,3,11,03,,,21,20,,,36,25,,,19*71
$BDGSV,1,1,02,11,41,075,18,14,34,134,20*62
$GNGLL,4339.5374,N,07923.7699,W,213002.163,A,A*55
$GPGRS,213002.163,1,-0.45,-2.71,-14.1,5.53,-0.45,1.34,,,,,,*7D
$GPGST,213002.163,3.0,19,3.7,25.7,17,9.0,61*78

----------------------End------------------------
----------------------Begin------------------------
$GNZDA,213002.563,04,04,2023,,*49
$GNRMC,213002.563,A,4339.5372,N,07923.7698,W,2.95,152.47,040423,,,A*6B
$GNVTG,152.47,T,,M,2.95,N,5.46,K,A*2F
$GNGGA,213002.563,4339.5372,N,07923.7698,W,1,7,1.52,110.5,M,-35.1,M,,*7D
$GPGSA,A,3,11,06,17,19,12,,,,,,,,1.79,1.52,0.94*0D
$BDGSA,A,3,14,11
----------------------End------------------------
----------------------Begin------------------------
$GNZDA,213007.363,04,04,2023,,*4A
$GNRMC,213007.363,A,4339.5346,N,07923.7655,W,3.27,123.23,040423,,,A*62
$GNVTG,123.23,T,,M,3.27,N,6.07,K,A*25
$GNGGA,213007.363,4339.5346,N,07923.7655,W,1,7,1.53,111.0,M,-35.1,M,,*7D
$GPGSA,A,3,11,06,17,19,12,,,,,,,,1.79,1.53,0.94*0C
$BDGSA,A,3,14,11
----------------------End------------------------
----------------------Begin------------------------
$GNZDA,213012.563,04,04,2023,,*48
$GNRMC,213012.563,A,4339.5333,N,07923.7575,W,3.66,92.35,040423,,,A*5A
$GNVTG,92.35,T,,M,3.66,N,6.78,K,A*14
$GNGGA,213012.563,4339.5333,N,07923.7575,W,1,7,1.53,110.7,M,-35.1,M,,*7A
$GPGSA,A,3,11,06,17,19,12,,,,,,,,1.79,1.53,0.94*0C
$BDGSA,A,3,14,11,,TG,79.23,T,,M,3.63,N,6.73,K,A*18
$GNGGA,213017.363,4339.5320,N,07923.7504,W,1,6,2.09,111.3,M,-35.1,M,,*75
$GPGSA,A,3,11,06,17,19,12,,,,,,,,2.30,2.09,0.95*0F
$BDGSA,A,3,11,,,,,,,,,,,,2.30,2.09,0.95*15
$GPGSV,3,1,11,06,76,015,47,19,63,084,47,11,52,254,38,12,40,304,24*70
$GPGSV,3,2,11,17,38,102,45,09,10,104,17,14,01,158,,46,,,32*47
$GPGSV,3,3,11,03,,,30,20,,,42,25,,,22*7A
$BDGSV,1,1,02,11,41,075,46,14,34,134,19*63
$GNGLL,4339.5320,N,07923.7504,W,213017.363,A,A*55
$GPGRS,213017.363,1,3.52,-2.91,2.47,1.76,-7.54,0.13,,,,,,*75
$GPGST,213017.363,4.1,15,6.8,09.9,15,7.2,53*71

----------------------End------------------------
----------------------Begin------------------------
$GNZDA,213017.763,04,04,2023,,*4F
$GNRMC,213017.763,A,4339.5319,N,07923.7498,W,3.63,83.15,040423,,,A*50
$GNVTG,83.15,T,,M,3.63,N,6.73,K,A*18
$GNGGA,213017.763,4339.5319,N,07923.7498,W,1,6,2.09,111.3,M,-35.1,M,,*7F
$GPGSA,A,3,11,06,17,19,12,,,,,,,,2.30,2.09,0.95*0F
$BDGSA,A,3,11,,,,,
----------------------End------------------------
----------------------Begin------------------------
$GNZDA,213022.563,04,04,2023,,*4B
$GNRMC,213022.563,A,4339.5338,N,07923.7423,W,4.21,62.50,040423,,,A*58
$GNVTG,62.50,T,,M,4.21,N,7.81,K,A*1B
$GNGGA,213022.563,4339.5338,N,07923.7423,W,1,6,1.77,112.4,M,-35.1,M,,*76
$GPGSA,A,3,11,06,17,19,,,,,,,,,2.02,1.77,0.98*0A
$BDGSA,A,3,14,11,,,,
----------------------End------------------------
----------------------Begin------------------------
$GNZDA,213027.763,04,04,2023,,*4C
$GNRMC,213027.763,A,4339.5339,N,07923.7342,W,3.71,75.01,040423,,,A*5E
$GNVTG,75.01,T,,M,3.71,N,6.88,K,A*13
$GNGGA,213027.763,4339.5339,N,07923.7342,W,1,7,1.53,116.6,M,-35.1,M,,*71
$GPGSA,A,3,11,06,17,19,12,,,,,,,,1.80,1.53,0.94*0A
$BDGSA,A,3,14,11,,,7.25,K,A*1D
$GNGGA,213032.563,4339.5344,N,07923.7258,W,1,7,1.53,121.8,M,-35.1,M,,*7D
$GPGSA,A,3,11,06,17,19,12,,,,,,,,1.80,1.53,0.94*0A
$BDGSA,A,3,14,11,,,,,,,,,,,1.80,1.53,0.94*15
$GPGSV,3,1,11,06,76,015,47,19,63,084,45,11,52,254,35,12,40,304,29*72
$GPGSV,3,2,11,17,38,102,46,09,10,104,,14,01,158,,46,,,33*43
$GPGSV,3,3,11,03,,,23,20,,,35,25,,,26*7C
$BDGSV,1,1,02,11,41,076,39,14,34,134,33*60
$GNGLL,4339.5344,N,07923.7258,W,213032.563,A,A*58
$GPGRS,213032.563,1,8.27,-1.25,0.97,0.20,-15.8,-7.60,5.24,,,,,*45
$GPGST,213032.563,5.4,14,6.8,14.0,14,7.4,53*77

----------------------End------------------------
----------------------Begin------------------------
$GNZDA,213032.963,04,04,2023,,*46
$GNRMC,213032.963,A,4339.5345,N,07923.7252,W,3.97,63.86,040423,,,A*5F
$GNVTG,63.86,T,,M,3.97,N,7.36,K,A*17
$GNGGA,213032.963,4339.5345,N,07923.7252,W,1,7,1.53,122.2,M,-35.1,M,,*73
$GPGSA,A,3,11,06,17,19,12,,,,,,,,1.80,1.53,0.94*0A
$BDGSA,A,3,14,11,,
----------------------End------------------------
----------------------Begin------------------------
$GNZDA,213037.763,04,04,2023,,*4D
$GNRMC,213037.763,A,4339.5339,N,07923.7185,W,3.21,79.98,040423,,,A*5F
$GNVTG,79.98,T,,M,3.21,N,5.95,K,A*15
$GNGGA,213037.763,4339.5339,N,07923.7185,W,1,7,1.53,126.6,M,-35.1,M,,*7A
$GPGSA,A,3,11,06,17,19,12,,,,,,,,1.80,1.53,0.94*0A
$BDGSA,A,3,14,11,,
----------------------End------------------------
----------------------Begin------------------------
$GNZDA,213042.963,04,04,2023,,*41
$GNRMC,213042.963,A,4339.5327,N,07923.7115,W,3.47,73.42,040423,,,A*58
$GNVTG,73.42,T,,M,3.47,N,6.44,K,A*17
$GNGGA,213042.963,4339.5327,N,07923.7115,W,1,7,1.53,130.4,M,-35.1,M,,*75
$GPGSA,A,3,11,06,17,19,12,,,,,,,,1.80,1.53,0.94*0A
$BDGSA,A,3,14,11,,21,20,,,20,25,,,24*78
$BDGSV,1,1,02,11,41,076,44,14,34,134,35*6C
$GNGLL,4339.5330,N,07923.7064,W,213047.763,A,A*56
$GPGRS,213047.763,1,8.64,-2.42,0.52,-1.06,-9.06,-5.78,3.69,,,,,*66
$GPGST,213047.763,5.4,14,6.7,14.3,14,7.4,53*7B

----------------------End------------------------
----------------------Begin------------------------
$GNZDA,213048.163,04,04,2023,,*43
$GNRMC,213048.163,A,4339.5331,N,07923.7060,W,2.19,78.52,040423,,,A*5E
$GNVTG,78.52,T,,M,2.19,N,4.06,K,A*13
$GNGGA,213048.163,4339.5331,N,07923.7060,W,1,7,1.54,132.0,M,-35.1,M,,*72
$GPGSA,A,3,11,06,17,19,12,,,,,,,,1.80,1.54,0.94*0D
$BDGSA,A,3,14,11,,
----------------------End------------------------
----------------------Begin------------------------
$GNZDA,213052.963,04,04,2023,,*40
$GNRMC,213052.963,A,4339.5340,N,07923.6999,W,4.09,81.67,040423,,,A*52
$GNVTG,81.67,T,,M,4.09,N,7.57,K,A*13
$GNGGA,213052.963,4339.5340,N,07923.6999,W,1,7,1.54,133.9,M,-35.1,M,,*71
$GPGSA,A,3,11,06,17,19,12,,,,,,,,1.80,1.54,0.94*0D
$BDGSA,A,3,14,11,,
----------------------End------------------------
----------------------Begin------------------------
$GNZDA,213058.163,04,04,2023,,*42
$GNRMC,213058.163,A,4339.5355,N,07923.6926,W,3.92,67.29,040423,,,A*57
$GNVTG,67.29,T,,M,3.92,N,7.27,K,A*13
$GNGGA,213058.163,4339.5355,N,07923.6926,W,1,7,1.60,136.7,M,-35.1,M,,*7F
$GPGSA,A,3,11,06,17,19,12,,,,,,,,3.29,1.60,2.88*04
$BDGSA,A,3,14,11,,GNGLL,4339.5365,N,07923.6867,W,213102.963,A,A*52
$GPGRS,213102.963,1,12.9,-1.57,1.87,-1.16,-5.91,-3.91,3.01,,,,,*6A
$GPGST,213102.963,5.3,14,6.9,12.8,14,7.4,54*76

----------------------End------------------------
----------------------Begin------------------------
$GNZDA,213103.363,04,04,2023,,*4F
$GNRMC,213103.363,A,4339.5366,N,07923.6861,W,3.13,77.74,040423,,,A*58
$GNVTG,77.74,T,,M,3.13,N,5.80,K,A*1C
$GNGGA,213103.363,4339.5366,N,07923.6861,W,1,7,1.54,139.2,M,-35.1,M,,*7D
$GPGSA,A,3,11,06,17,19,12,,,,,,,,1.81,1.54,0.94*0C
$BDGSA,A,3,14,11,,
----------------------End------------------------
----------------------Begin------------------------
$GNZDA,213108.163,04,04,2023,,*46
$GNRMC,213108.163,A,4339.5373,N,07923.6814,W,3.55,75.93,040423,,,A*5E
$GNVTG,75.93,T,,M,3.55,N,6.57,K,A*1C
$GNGGA,213108.163,4339.5373,N,07923.6814,W,1,7,1.54,139.5,M,-35.1,M,,*75
$GPGSA,A,3,11,06,17,19,12,,,,,,,,1.81,1.54,0.94*0C
$BDGSA,A,3,14,11,,
----------------------End------------------------
----------------------Begin------------------------
$GNZDA,213113.363,04,04,2023,,*4E
$GNRMC,213113.363,A,4339.5369,N,07923.6782,W,3.34,73.86,040423,,,A*58
$GNVTG,73.86,T,,M,3.34,N,6.19,K,A*13
$GNGGA,213113.363,4339.5369,N,07923.6782,W,1,7,1.54,135.5,M,-35.1,M,,*7A
$GPGSA,A,3,11,06,17,19,12,,,,,,,,1.81,1.54,0.95*0D
$BDGSA,A,3,14,11,,
----------------------End------------------------
----------------------Begin------------------------
$GNZDA,213118.163,04,04,2023,,*4.163,A,4339.5361,N,07923.6739,W,3.75,68.16,040423,,,A*5F
$GNVTG,68.16,T,,M,3.75,N,6.95,K,A*11
$GNGGA,213118.163,4339.5361,N,07923.6739,W,1,6,2.52,132.8,M,-35.1,M,,*75
$GPGSA,A,3,11,06,17,19,,,,,,,,,5.44,2.52,4.82*04
$BDGSA,A,3,14,11,,,,,,,,,,,5.44,2.52
----------------------End------------------------
----------------------Begin------------------------
$GNZDA,213123.363,04,04,2023,,*4D
$GNRMC,213123.363,A,4339.5372,N,07923.6684,W,3.37,75.29,040423,,,A*56
$GNVTG,75.29,T,,M,3.37,N,6.25,K,A*1C
$GNGGA,213123.363,4339.5372,N,07923.6684,W,1,7,1.54,129.1,M,-35.1,M,,*7D
$GPGSA,A,3,11,06,17,19,12,,,,,,,,1.81,1.54,0.95*0D
$BDGSA,A,3,14,11,,,4.1,30*7A

----------------------End------------------------
----------------------Begin------------------------
$GNZDA,213128.563,04,04,2023,,*40
$GNRMC,213128.563,A,4339.5406,N,07923.6635,W,3.44,59.35,040423,,,A*52
$GNVTG,59.35,T,,M,3.44,N,6.38,K,A*17
$GNGGA,213128.563,4339.5406,N,07923.6635,W,1,7,1.55,122.5,M,-35.1,M,,*70
$GPGSA,A,3,11,06,17,19,12,,,,,,,,1.81,1.55,0.95*0C
$BDGSA,A,3,14,11,,
----------------------End------------------------
----------------------Begin------------------------
$GNZDA,213133.363,04,04,2023,,*4C
$GNRMC,213133.363,A,4339.5428,N,07923.6580,W,3.60,80.34,040423,,,A*5C
$GNVTG,80.34,T,,M,3.60,N,6.67,K,A*1E
$GNGGA,213133.363,4339.5428,N,07923.6580,W,1,7,1.55,118.3,M,-35.1,M,,*72
$GPGSA,A,3,11,06,17,19,12,,,,,,,,1.81,1.55,0.95*0C
$BDGSA,A,3,14,11,,
----------------------End------------------------
----------------------Begin------------------------
$GNZDA,213138.563,04,04,2023,,*41
$GNRMC,213138.563,A,4339.5450,N,07923.6521,W,3.62,58.17,040423,,,A*53
$GNVTG,58.17,T,,M,3.62,N,6.70,K,A*1E
$GNGGA,213138.563,4339.5450,N,07923.6521,W,1,7,1.55,114.6,M,-35.1,M,,*72
$GPGSA,A,3,11,06,17,19,12,,,,,,,,1.81,1.55,0.95*0C
$BDGSA,A,3,14,11,,4B
$GNRMC,213143.363,A,4339.5469,N,07923.6463,W,3.38,95.56,040423,,,A*5F
$GNVTG,95.56,T,,M,3.38,N,6.26,K,A*16
$GNGGA,213143.363,4339.5469,N,07923.6463,W,1,7,1.55,112.1,M,-35.1,M,,*74
$GPGSA,A,3,11,06,17,19,12,,,,,,,,1.81,1.55,0.95*0C
$BDGSA,A,3,14,11,,,,,,,,,,,1.81,1.55,0.95*13
$GPGSV,3,1,10,06,76,017,49,19,63,085,48,11,52,254,36,12,40,304,33*7B
$GPGSV,3,2,10,17,37,102,47,09,10,104,15,14,01,158,,46,,,25*4F
$GPGSV,3,3,10,03,,,29,20,,,38*79
$BDGSV,1,1,03,11,40,076,45,14,34,133,35,02,,,28*62
$GNGLL,4339.5469,N,07923.6463,W,213143.363,A,A*5E
$GPGRS,213143.363,1,2.25,-3.70,0.99,1.46,5.24,-2.15,1.50,,,,,*63
$GPGST,213143.363,3.8,9.6,3.4,15.3,9.3,4.1,30*71

----------------------End------------------------
----------------------Begin------------------------
$GNZDA,213143.763,04,04,2023,,*4F
$GNRMC,213143.763,A,4339.5470,N,07923.6459,W,3.35,99.72,040423,,,A*5D
$GNVTG,99.72,T,,M,3.35,N,6.21,K,A*16
$GNGGA,213143.763,4339.5470,N,07923.6459,W,1,7,1.55,111.8,M,-35.1,M,,*7B
$GPGSA,A,3,11,06,17,19,12,,,,,,,,1.81,1.55,0.95*0C
$BDGSA,A,3,14,11,,
----------------------End------------------------
----------------------Begin------------------------
$GNZDA,213148.563,04,04,2023,,*46
$GNRMC,213148.563,A,4339.5486,N,07923.6410,W,3.13,67.87,040423,,,A*5F
$GNVTG,67.87,T,,M,3.13,N,5.80,K,A*11
$GNGGA,213148.563,4339.5486,N,07923.6410,W,1,7,1.55,107.7,M,-35.1,M,,*7E
$GPGSA,A,3,11,06,17,19,12,,,,,,,,1.82,1.55,0.95*0F
$BDGSA,A,3,14,11,,
----------------------End------------------------
----------------------Begin------------------------
$GNZDA,213153.763,04,04,2023,,*4E
$GNRMC,213153.763,A,4339.5506,N,07923.6351,W,3.24,64.99,040423,,,A*54
$GNVTG,64.99,T,,M,3.24,N,6.01,K,A*13
$GNGGA,213153.763,4339.5506,N,07923.6351,W,1,7,1.55,104.6,M,-35.1,M,,*7F
$GPGSA,A,3,11,06,17,19,12,,,,,,,,1.82,1.55,0.95*0F
$BDGSA,A,3,14,11,,58.563,2.9,7.4,3.8,01.4,7.4,3.8,29*70

----------------------End------------------------
----------------------Begin------------------------
$GNZDA,213158.963,04,04,2023,,*4B
$GNRMC,213158.963,A,4339.5526,N,07923.6287,W,3.02,64.44,040423,,,A*5D
$GNVTG,64.44,T,,M,3.02,N,5.60,K,A*13
$GNGGA,213158.963,4339.5526,N,07923.6287,W,1,8,1.12,103.0,M,-35.1,M,,*7F
$GPGSA,A,3,11,06,17,19,20,12,,,,,,,1.47,1.12,0.94*06
$BDGSA,A,3,14,11
----------------------End------------------------
----------------------Begin------------------------
$GNZDA,213203.763,04,04,2023,,*48
$GNRMC,213203.763,A,4339.5536,N,07923.6227,W,3.01,68.73,040423,,,A*5E
$GNVTG,68.73,T,,M,3.01,N,5.58,K,A*13
$GNGGA,213203.763,4339.5536,N,07923.6227,W,1,8,1.12,101.3,M,-35.1,M,,*76
$GPGSA,A,3,11,06,17,19,20,12,,,,,,,1.47,1.12,0.94*06
$BDGSA,A,3,14,11
----------------------End------------------------
----------------------Begin------------------------
$GNZDA,213208.963,04,04,2023,,*4D
$GNRMC,213208.963,A,4339.5552,N,07923.6162,W,3.26,62.90,040423,,,A*59
$GNVTG,62.90,T,,M,3.26,N,6.05,K,A*1A
$GNGGA,213208.963,4339.5552,N,07923.6162,W,1,7,1.40,99.4,M,-35.1,M,,*4C
$GPGSA,A,3,11,06,17,19,20,,,,,,,,1.71,1.40,0.98*0B
$BDGSA,A,3,14,11,,,
----------------------End------------------------
----------------------Begin------------------------
$GNZDA,213213.763,04,04,2023,,*49
$GNRMC,21
$BDGSA,A,3,14,11,,,,,,,,,,,1.47,1.12,0.94*1B
$GPGSV,3,1,10,06,75,018,50,19,63,085,47,11,52,254,37,12,40,304,28*7B
$GPGSV,3,2,10,17,37,102,46,20,25,199,39,09,10,104,14,14,01,158,*74
$GPGSV,3,3,10,46,,,27,03,,,19*74
$BDGSV,1,1,02,11,40,076,
----------------------End------------------------
----------------------Begin------------------------
$GNZDA,213218.963,04,04,2023,,*4C
$GNRMC,213218.963,A,4339.5589,N,07923.6037,W,3.28,68.55,040423,,,A*52
$GNVTG,68.55,T,,M,3.28,N,6.08,K,A*1A
$GNGGA,213218.963,4339.5589,N,07923.6037,W,1,8,1.12,97.0,M,-35.1,M,,*48
$GPGSA,A,3,11,06,17,19,20,12,,,,,,,1.47,1.12,0.94*06
$BDGSA,A,3,14,11,
----------------------End------------------------
----------------------Begin------------------------
$GNZDA,213224.163,04,04,2023,,*4B
$GNRMC,213224.163,A,4339.5600,N,07923.5971,W,3.26,73.58,040423,,,A*56
$GNVTG,73.58,T,,M,3.26,N,6.04,K,A*1F
$GNGGA,213224.163,4339.5600,N,07923.5971,W,1,8,1.13,96.5,M,-35.1,M,,*40
$GPGSA,A,3,11,06,17,19,20,12,,,,,,,1.47,1.13,0.94*07
$BDGSA,A,3,14,11,
----------------------End------------------------
----------------------Begin------------------------
$GNZDA,213228.963,04,04,2023,,*4F
$GNRMC,213228.963,A,4339.5623,N,07923.5916,W,3.03,66.25,040423,,,A*5B
$GNVTG,66.25,T,,M,3.03,N,5.62,K,A*15
$GNGGA,213228.963,4339.5623,N,07923.5916,W,1,8,1.13,95.3,M,-35.1,M,,*41
$GPGSA,A,3,11,06,17,19,20,12,,,,,,,1.47,1.13,0.94*07
$BDGSA,A,3,14,11,
----------------------End------------------------
----------------------Begin------------------------
$GNZDA,213234.163,04,04,2023,,*4A
$GNRMC,213234.163,A,4339.5644,N,07923.5861,W,2.85,63.43,040423,,,A*54
$GNVTG,63.43,T,,M,2.85,N,5.28,K,A*11
$GNGGA,213234.163,4339.5644,N,07923.5861,W,1,8,1.13,93.7,M,-35.1,M,,*46
$GPGSA,A,3,11,06,17,19,20,12,,,,,,,1.47,1.13,0.94*07
$BDGSA,A,3,14,11,
----------------------End------------------------
----------------------Begin------------------------
$GNZDA,213239.363,04,04,2023,,*45
$GNRMC,213239.363,A,4339.5660,N,07923.5799,W,2.63,77.15,040423,,,A*5B
$GNVTG,77.15,T,,M,2.63,N,4.88,K,A*14
$GNGGA,213239.363,4339.5660,N,07923.5799,W,1,8,1.13,92.8,M,-35.1,M,,*49
$GPGSA,A,3,11,06,17,19,20,12,,,,,,,1.47,1.13,0.94*07
$BDGSA,A,3,14,11,
----------------------End------------------------
----------------------Begin------------------------
$GNZDA,213244.163,04,04,2023,,*4D
$GNRMC,213244.163,A,4339.5693,N,07923.5732,W,3.41,59.70,040423,,,A*50
$GNVTG,59.70,T,,M,3.41,N,6.32,K,A*19
$GNGGA,213244.163,4339.5693,N,07923.5732,W,1,8,1.13,91.7,M,-35.1,M,,*40
$GPGSA,A,3,11,06,17,19,20,12,,,,,,,1.47,1.13,0.94*07
$BDGSA,A,3,14,11,
----------------------End------------------------
----------------------Begin------------------------
$GNZDA,213249.363,04,04,2023,,*42
$GNRMC,213249.363,A,4339.5725,N,07923.5669,W,3.30,71.01,040423,,,A*56
$GNVTG,71.01,T,,M,3.30,N,6.11,K,A*12
$GNGGA,213249.363,4339.5725,N,07923.5669,W,1,6,1.79,91.2,M,-35.1,M,,*4B
$GPGSA,A,3,11,06,17,19,,,,,,,,,2.04,1.79,0.98*02
$BDGSA,A,3,14,11,,,,,
----------------------End------------------------
----------------------Begin------------------------
$GNZDA,213254.163,04,04,2023,,*43,93.0,M,-35.1,M,,*4A
$GPGSA,A,3,11,06,17,19,20,12,,,,,,,1.47,1.13,0.94*07
$BDGSA,A,3,14,11,,,,,,,,,,,1.47,1.13,0.94*1A
$GPGSV,3,1,09,06,75,018,50,19,62,085,48,11,53,255,35,12,40,303,32*73
$GPGSV,3,2,09,17,37,102,31,20,25,199,25,09,10,104,16,46,,,34*4E
----------------------End------------------------
----------------------Begin------------------------
$GNZDA,213259.363,04,04,2023,,*43
$GNRMC,213259.363,A,4339.5730,N,07923.5553,W,2.50,81.38,040423,,,A*5B
$GNVTG,81.38,T,,M,2.50,N,4.63,K,A*17
$GNGGA,213259.363,4339.5730,N,07923.5553,W,1,8,1.13,96.3,M,-35.1,M,,*40
$GPGSA,A,3,11,06,17,19,20,12,,,,,,,1.47,1.13,0.94*07
$BDGSA,A,3,14,11,
----------------------End------------------------
----------------------Begin------------------------
$GNZDA,213304.563,04,04,2023,,*4C
$GNRMC,213304.563,A,4339.5729,N,07923.5516,W,2.89,64.32,040423,,,A*58
$GNVTG,64.32,T,,M,2.89,N,5.35,K,A*10
$GNGGA,213304.563,4339.5729,N,07923.5516,W,1,8,1.13,97.5,M,-35.1,M,,*41
$GPGSA,A,3,11,06,17,19,20,12,,,,,,,1.47,1.13,0.94*07
$BDGSA,A,3,14,11,
----------------------End------------------------
----------------------Begin------------------------
$GNZDA,213309.363,04,04,2023,,*47
$GNRMC,213309.363,A,4339.5743,N,07923.5476,W,2.96,72.14,040423,,,A*55
$GNVTG,72.14,T,,M,2.96,N,5.48,K,A*17
$GNGGA,213309.363,4339.5743,N,07923.5476,W,1,8,1.13,97.9,M,-35.1,M,,*4D
$GPGSA,A,3,11,06,17,19,20,12,,,,,,,1.47,1.13,0.94*07
$BDGSA,A,3,14,11,
----------------------End------------------------
----------------------Begin------------------------
$GNZDA,213314.563,04,04,2023,,*4D
$GNRMC,213314.563,A,4339.5752,N,07923.5425,W,3.02,99.58,040423,,,A*58
$GNVTG,99.58,T,,M,3.02,N,5.60,K,A*1C
$GNGGA,213314.563,4339.5752,N,07923.5425,W,1,8,1.13,98.7,M,-35.1,M,,*40
$GPGSA,A,3,11,06,17,19,20,12,,,,,,,1.47,1.13,0.94*07
$BDGSA,A,3,14,11,
----------------------End------------------------
----------------------Begin------------------------
$GNZDA,213319.763,04,04,2023,,*42
$GNRMC,213319.763,A,4339.5755,N,07923.5362,W,2.43,98.93,040423,,,A*56
$GNVTG,98.93,T,,M,2.43,N,4.50,K,A*1C
$GNGGA,213319.763,4339.5755,N,07923.5362,W,1,8,1.13,101.8,M,-35.1,M,,*72
$GPGSA,A,3,11,06,17,19,20,12,,,,,,,1.47,1.13,0.94*07
$BDGSA,A,3,14,11
----------------------End------------------------
----------------------Begin------------------------
$GNZDA,213324.563,04,04,2023,,*4E
$GNRMC,213324.563,A,4339.5755,N,07923.5303,W,2.44,63.63,040423,,,A*51
$GNVTG,63.63,T,,M,2.44,N,4.52,K,A*12
$GNGGA,213324.563,4339.5755,N,07923.5303,W,1,7,1.17,106.3,M,-35.1,M,,*7E
$GPGSA,A,3,11,06,19,20,12,,,,,,,,1.51,1.17,0.95*03
$BDGSA,A,3,14,11,,
----------------------End------------------------
----------------------Begin------------------------
$GNZDA,213329.763,04,04,2023,,*41
$GNRMC,213329.763,A,4339.5770,N,07923.5249,W,2.76,74.82,040423,,,A*5E
$GNVTG,74.82,T,,M,2.76,N,5.11,K,A*1C
$GNGGA,213329.763,4339.5770,N,07923.5249,W,1,8,1.13,109.6,M,-35.1,M,,*78
$GPGSA,A,3,11,06,17,19,20,12,,,,,,,1.47,1.13,0.94*07
$BDGSA,A,3,14,1123.5183,W,213334.563,A,A*57
$GPGRS,213334.563,1,8.77,-2.40,-3.83,2.64,-11.5,-9.27,-26.3,2.30,,,,*5E
$GPGST,213334.563,6.1,8.8,4.4,179.6,8.8,4.4,33*43

----------------------End------------------------
----------------------Begin------------------------
$GNZDA,213334.963,04,04,2023,,*43
$GNRMC,213334.963,A,4339.5809,N,07923.5180,W,3.27,81.21,040423,,,A*5D
$GNVTG,81.21,T,,M,3.27,N,6.06,K,A*1F
$GNGGA,213334.963,4339.5809,N,07923.5180,W,1,8,1.13,114.6,M,-35.1,M,,*71
$GPGSA,A,3,11,06,17,19,20,12,,,,,,,1.47,1.13,0.94*07
$BDGSA,A,3,14,11
----------------------End------------------------
----------------------Begin------------------------
$GNZDA,213339.763,04,04,2023,,*40
$GNRMC,213339.763,A,4339.5831,N,07923.5132,W,2.61,98.85,040423,,,A*59
$GNVTG,98.85,T,,M,2.61,N,4.84,K,A*12
$GNGGA,213339.763,4339.5831,N,07923.5132,W,1,8,1.13,117.4,M,-35.1,M,,*71
$GPGSA,A,3,11,06,17,19,20,12,,,,,,,1.47,1.13,0.94*07
$BDGSA,A,3,14,11
----------------------End------------------------
----------------------Begin------------------------
$GNZDA,213344.963,04,04,2023,,*44
$GNRMC,213344.963,A,4339.5856,N,07923.5077,W,3.23,78.92,040423,,,A*53
$GNVTG,78.92,T,,M,3.23,N,5.98,K,A*11
$GNGGA,213344.963,4339.5856,N,07923.5077,W,1,8,1.13,115.7,M,-35.1,M,,*75
$GPGSA,A,3,11,06,17,19,20,12,,,,,,,1.47,1.13,0.94*07
$BDGSA,A,3,14,11ZDA,213349.76
----------------------End------------------------
----------------------Begin------------------------
3,04,04,2023,,*47
$GNRMC,213349.763,A,4339.5875,N,07923.5006,W,SV,3,2,09,17,37,103,49,20,25,199,36,09,10,103,,46,,,32*44
$GPGSV,3,3,09,03,,,26*77
$BDGSV,1,1,03,11,40,077,45,14,35,133,25,16,01,351,*5A
$GNGLL,4339.5875,N,07923.5006,W,213349.763,A,A*57
$GPGRS,213349.763,1,5.30,-5.83,4.
----------------------End------------------------
----------------------Begin------------------------
$GNZDA,213354.963,04,04,2023,,*45
$GNRMC,213354.963,A,4339.5869,N,07923.4938,W,3.59,93.19,040423,,,A*56
$GNVTG,93.19,T,,M,3.59,N,6.65,K,A*1B
$GNGGA,213354.963,4339.5869,N,07923.4938,W,1,8,1.33,110.8,M,-35.1,M,,*73
$GPGSA,A,3,11,06,17,19,20,12,,,,,,,3.11,1.33,2.81*02
$BDGSA,A,3,14,11
----------------------End------------------------
----------------------Begin------------------------
$GNZDA,213400.163,04,04,2023,,*4B
$GNRMC,213400.163,A,4339.5859,N,07923.4879,W,3.48,105.39,040423,,,A*63
$GNVTG,105.39,T,,M,3.48,N,6.45,K,A*25
$GNGGA,213400.163,4339.5859,N,07923.4879,W,1,7,1.41,109.8,M,-35.1,M,,*78
$GPGSA,A,3,11,06,17,19,20,,,,,,,,1.71,1.41,0.98*0A
$BDGSA,A,3,14,11
----------------------End------------------------
----------------------Begin------------------------
$GNZDA,213404.963,04,04,2023,,*47
$GNRMC,213404.963,A,4339.5876,N,07923.4818,W,3.40,62.59,040423,,,A*5B
$GNVTG,62.59,T,,M,3.40,N,6.31,K,A*18
$GNGGA,213404.963,4339.5876,N,07923.4818,W,1,7,1.41,109.2,M,-35.1,M,,*74
$GPGSA,A,3,11,06,17,19,20,,,,,,,,1.71,1.41,0.98*0A
$BDGSA,A,3,14,11,,
----------------------End------------------------
----------------------Begin------------------------
$GNZDA,213410.163,04,04,2023,,*4A
$GNRMC,213410.163,A,4339.5883,N,07923.4769,W,2.64,41.04,040423,,,A*5B
$GNVTG,41.04,T,,M,2.64,N,4.89,K,A*17
$GNGGA,213410.163,4339.5883,N,07923.4769,W,1,8,1.13,112.0,M,-35.1,M,,*7A
$GPGSA,A,3,11,06,17,19,20,12,,,,,,,1.47,1.13,0.94*07
$BDGSA,A,3,14,11$GPGSV,3,3,11,46,,,26,03,,,22,04,,,18*71
$BDGSV,1,1,02,11,40,077,28,14,35,133,35*60
$GNGLL,4339.5902,N,07923.4737,W,213414.963,A,A*53
$GPGRS,213414.963,1,4.79,-1.35,-8.60,1.88,-4.90,-26.9,-0.86,3.85,,,,*5C
$GPGST,213414.963,5.2,13,5.7,04.6,13,5.8,42*78

----------------------End------------------------
----------------------Begin------------------------
$GNZDA,213415.363,04,04,2023,,*4D
$GNRMC,213415.363,A,4339.5907,N,07923.4733,W,3.68,33.83,040423,,,A*59
$GNVTG,33.83,T,,M,3.68,N,6.82,K,A*19
$GNGGA,213415.363,4339.5907,N,07923.4733,W,1,8,1.13,115.7,M,-35.1,M,,*7F
$GPGSA,A,3,11,06,17,19,20,12,,,,,,,1.47,1.13,0.94*07
$BDGSA,A,3,14,11
----------------------End------------------------
----------------------Begin------------------------
$GNZDA,213420.163,04,04,2023,,*49
$GNRMC,213420,14,11,,,,,,,,,,,1.47,1.13,0.94*1A
$GPGSV,3,1,10,06,75,020,47,19,62,087,47,11,53,256,18,12,41,303,26*73
$GPGSV,3,2,10,17,36,103,29,20,26,199,30,09,11,103,20,24,04,254,*7F
$GPGSV,3,3,10,46,,,32,03,,,25*7F
$BDGSV,1,1,02,11,40,077,34,14,35
----------------------End------------------------
----------------------Begin------------------------
$GNZDA,213425.363,04,04,2023,,*4E
$GNRMC,213425.363,A,4339.6019,N,07923.4635,W,3.03,5.72,040423,,,A*6E
$GNVTG,5.72,T,,M,3.03,N,5.61,K,A*21
$GNGGA,213425.363,4339.6019,N,07923.4635,W,1,8,1.41,128.0,M,-35.1,M,,*70
$GPGSA,A,3,11,06,17,19,20,12,,,,,,,1.71,1.41,0.98*09
$BDGSA,A,3,14,11,,,11,4.0,26.5,9.6,5.9,35*58

----------------------End------------------------
----------------------Begin------------------------
$GNZDA,213430.563,04,04,2023,,*4C
$GNRMC,213430.563,A,4339.6126,N,07923.4640,W,2.35,10.33,040423,,,A*56
$GNVTG,10.33,T,,M,2.35,N,4.35,K,A*14
$GNGGA,213430.563,4339.6126,N,07923.4640,W,1,8,1.13,128.0,M,-35.1,M,,*7A
$GPGSA,A,3,11,06,17,19,20,12,,,,,,,1.48,1.13,0.94*08
$BDGSA,A,3,14,11
----------------------End------------------------
----------------------Begin------------------------
$GNZDA,213435.363,04,04,2023,,*4F
$GNRMC,213435.363,A,4339.6159,N,07923.4635,W,1.70,351.42,040423,,,A*6D
$GNVTG,351.42,T,,M,1.70,N,3.16,K,A*20
$GNGGA,213435.363,4339.6159,N,07923.4635,W,1,8,1.13,121.9,M,-35.1,M,,*73
$GPGSA,A,3,11,06,17,19,20,12,,,,,,,1.48,1.13,0.94*08
$BDGSA,A,3,14,
----------------------End------------------------
----------------------Begin------------------------
$GNZDA,213440.563,04,04,2023,,*4B
$GNRMC,213440.563,A,4339.6198,N,07923.4668,W,3.29,336.46,040423,,,A*67
$GNVTG,336.46,T,,M,3.29,N,6.10,K,A*28
$GNGGA,213440.563,4339.6198,N,07923.4668,W,1,8,1.14,118.9,M,-35.1,M,,*7F
$GPGSA,A,3,11,06,17,19,20,12,,,,,,,1.48,1.14,0.94*0F
$BDGSA,A,3,14,3,04,04,2023,,*48
$GNRMC,213445.363,A,4339.6207,N,07923.4746,W,2.96,273.96,040423,,,A*64
$GNVTG,273.96,T,,M,2.96,N,5.48,K,A*2E
$GNGGA,213445.363,4339.6207,N,07923.4746,W,1,7,1.23,117.8,M,-35.1,M,,*71
$GPGSA,A,3,11,06,17,19,20,12,,,,,,,1.55,1.23,0.94*07
$BDGSA,A,3,11,,,,,,,,,,,,1.55,1.23,0.94*1F
$GPGSV,3,1,10,06,74,021,49,19,62,087,44,11,54,256,40,12,41,302,48*7D
$GPGSV,3,2,10,17,36,103,43,20,26,199,25,09,11,103,25,46,,,28*4B
$GPGSV,3,3,10,03,,,23,25,,,42*7B
$BDGSV,1,1,03,11,39,077,42,14,36,132,36,21,20,044,41*56
$GNGLL,4339.6207,N,07923.4746,W,213445.363,A,A*56
$GPGRS,213445.363,1,3.36,-3.01,-2.31,1.10,-76.3,8.21,0.63,,,,,*46
$GPGST,213445.363,5.4,9.1,3.6,14.2,8.9,4.2,31*74

----------------------End------------------------
----------------------Begin------------------------
$GNZDA,213445.763,04,04,2023,,*4C
$GNRMC,213445.763,A,4339.6209,N,07923.4752,W,2.90,279.11,040423,,,A*68
$GNVTG,279.11,T,,M,2.90,N,5.38,K,A*2A
$GNGGA,213445.763,4339.6209,N,07923.4752,W,1,8,1.14,117.5,M,-35.1,M,,*78
$GPGSA,A,3,11,06,17,19,20,12,,,,,,,1.48,1.14,0.94*0F
$BDGSA,A,3,14,
----------------------End------------------------
----------------------Begin------------------------
$GNZDA,213450.563,04,04,2023,,*4A
$GNRMC,213450.563,A,4339.6236,N,07923.4812,W,3.01,305.22,040423,,,A*6A
$GNVTG,305.22,T,,M,3.01,N,5.58,K,A*2F
$GNGGA,213450.563,4339.6236,N,07923.4812,W,1,8,1.14,114.5,M,-35.1,M,,*7A
$GPGSA,A,3,11,06,17,19,20,12,,,,,,,1.48,1.14,0.94*0F
$BDGSA,A,3,14,
----------------------End------------------------
----------------------Begin------------------------
$GNZDA,213455.763,04,04,2023,,*4D
$GNRMC,213455.763,A,4339.6257,N,07923.4861,W,2.77,317.37,040423,,,A*69
$GNVTG,317.37,T,,M,2.77,N,5.13,K,A*27
$GNGGA,213455.763,4339.6257,N,07923.4861,W,1,8,1.14,111.5,M,-35.1,M,,*7B
$GPGSA,A,3,11,06,17,19,20,12,,,,,,,1.48,1.14,0.94*0F
$BDGSA,A,3,14,12,,,,,,,1.48,1.14,0.94*0F
$BDGSA,A,3,14,11,,,,,,,,,,,1.48,1.14,0.94*12
$GPGSV,3,1,10,06,74,021,49,19,62,087,44,11,54,256,40,12,41,302,47*72
$GPGSV,3,2,10,17,36,103,41,20,26,199,25,09,11,103,26,46,,,26*44
$GPGSV,3,3,10,03,,,23,25,,,35*7B
$BDGSV,1,1,03,11,39,077,41,14,36,132,33,21,20,044,39*5F
$GNGLL,4339.6281,N,07923.4903,W,213500.563,A,A*51
$GPGRS,213500.563,1,0.81,-4.14,2.18,1.27,-93.4,2.58,-3.89,2.64,,,,*52
$GPGST,213500.563,4.5,9.1,3.4,14.5,8.8,4.0,30*75

----------------------End------------------------
----------------------Begin------------------------
$GNZDA,213500.963,04,04,2023,,*42
$GNRMC,213500.963,A,4339.6283,N,07923.4906,W,3.16,318.12,040423,,,A*61
$GNVTG,318.12,T,,M,3.16,N,5.86,K,A*25
$GNGGA,213500.963,4339.6283,N,07923.4906,W,1,8,1.14,108.3,M,-35.1,M,,*73
$GPGSA,A,3,11,06,17,19,20,12,,,,,,,1.48,1.14,0.94*0F
$BDGSA,A,3,14,
----------------------End------------------------
----------------------Begin------------------------
$GNZDA,213505.763,04,04,2023,,*49
$GNRMC,213505.763,A,4339.6306,N,07923.4951,W,2.68,305.56,040423,,,A*60
$GNVTG,305.56,T,,M,2.68,N,4.96,K,A*21
$GNGGA,213505.763,4339.6306,N,07923.4951,W,1,8,1.60,105.7,M,-35.1,M,,*7C
$GPGSA,A,3,11,06,17,19,20,12,,,,,,,1.86,1.60,0.95*0F
$BDGSA,A,3,14,
----------------------End------------------------
----------------------Begin------------------------
$GNZDA,213510.963,04,04,2023,,*43
$GNRMC,213510.963,A,4339.6331,N,07923.4998,W,2.70,346.40,040423,,,A*62
$GNVTG,346.40,T,,M,2.70,N,5.01,K,A*27
$GNGGA,213510.963,4339.6331,N,07923.4998,W,1,8,1.60,102.7,M,-35.1,M,,*70
$GPGSA,A,3,11,06,17,19,20,12,,,,,,,1.86,1.60,0.95*0F
$BDGSA,A,3,14,,39,12,41,302,45*7F
$GPGSV,3,2,10,17,36,103,41,20,26,199,23,09,11,103,16,46,,,*45
$GPGSV,3,3,10,03,,,23,25,,,32*7C
$BDGSV,1,1,03,11,39,077,40,14,36,132,28,21,20,044,36*5B
$GNGLL,4339.6378,N,07923.5024,W,213515.763,A,A*5D
$GPGRS,213515.763,1,-1.48,-2.92,0.68,1.00,-96.0,2.44,-3.40,1.46,,,,*7F
$GPGST,213515.763,3.6,9.0,3.4,13.8,8.8,3.9,30*72

----------------------End------------------------
----------------------Begin------------------------
$GNZDA,213516.163,04,04,2023,,*4D
$GNRMC,213516.163,A,4339.6381,N,07923.5026,W,3.22,326.93,040423,,,A*64
$GNVTG,326.93,T,,M,3.22,N,5.97,K,A*26
$GNGGA,213516.163,4339.6381,N,07923.5026,W,1,8,1.14,98.8,M,-35.1,M,,*46
$GPGSA,A,3,11,06,17,19,20,12,,,,,,,1.48,1.14,0.94*0F
$BDGSA,A,3,14,1
----------------------End------------------------
----------------------Begin------------------------
$GNZDA,213520.963,04,04,2023,,*40
$GNRMC,213520.963,A,4339.6427,N,07923.5048,W,3.26,325.14,040423,,,A*62
$GNVTG,325.14,T,,M,3.26,N,6.04,K,A*27
$GNGGA,213520.963,4339.6427,N,07923.5048,W,1,8,1.14,95.9,M,-35.1,M,,*44
$GPGSA,A,3,11,06,17,19,20,12,,,,,,,1.48,1.14,0.94*0F
$BDGSA,A,3,14,1
----------------------End------------------------
----------------------Begin------------------------
$GNZDA,213526.163,04,04,2023,,*4E
$GNRMC,213526.163,A,4339.6467,N,07923.5071,W,3.16,328.93,040423,,,A*63
$GNVTG,328.93,T,,M,3.16,N,5.85,K,A*2C
$GNGGA,213526.163,4339.6467,N,07923.5071,W,1,8,1.14,93.9,M,-35.1,M,,*42
$GPGSA,A,3,11,06,17,19,20,12,,,,,,,1.48,1.14,0.94*0F
$BDGSA,A,3,14,1213530.963,A,A*5D
$GPGRS,213530.963,1,0.73,-0.42,-1.12,1.37,1.42,1.08,-26.0,,,,,*48
$GPGST,213530.963,2.7,8.2,3.4,13.4,8.0,3.8,30*7D

----------------------End------------------------
----------------------Begin------------------------
$GNZDA,213531.363,04,04,2023,,*4A
$GNRMC,213531.363,A,4339.6521,N,07923.5090,W,3.60,353.73,040423,,,A*68
$GNVTG,353.73,T,,M,3.60,N,6.66,K,A*21
$GNGGA,213531.363,4339.6521,N,07923.5090,W,1,7,1.57,92.7,M,-35.1,M,,*4D
$GPGSA,A,3,11,06,17,19,20,12,,,,,,,3.58,1.57,3.21*06
$BDGSA,A,3,14,,
----------------------End------------------------
----------------------Begin------------------------
$GNZDA,213536.163,04,04,2023,,*4F
$GNRMC,213536.163,A,4339.6554,N,07923.5128,W,2.98,277.08,040423,,,A*60
$GNVTG,277.08,T,,M,2.98,N,5.52,K,A*28
$GNGGA,213536.163,4339.6554,N,07923.5128,W,1,8,1.14,92.6,M,-35.1,M,,*41
$GPGSA,A,3,11,06,17,19,20,12,,,,,,,1.48,1.14,0.94*0F
$BDGSA,A,3,14,1
----------------------End------------------------
----------------------Begin------------------------
$GNZDA,213541.363,04,04,2023,,*4D
$GNRMC,213541.363,A,4339.6580,N,07923.5173,W,2.88,287.33,040423,,,A*63
$GNVTG,287.33,T,,M,2.88,N,5.34,K,A*2E
$GNGGA,213541.363,4339.6580,N,07923.5173,W,1,8,1.14,93.0,M,-35.1,M,,*43
$GPGSA,A,3,11,06,17,19,20,12,,,,,,,1.48,1.14,0.94*0F
$BDGSA,A,3,14,109,W,213546.163,A,A*53
$GPGRS,213546.163,1,0.49,-2.11,-2.27,1.68,-1.98,0.36,-1.15,0.59,,,,*76
$GPGST,213546.163,2.2,7.0,3.6,06.3,7.0,3.6,29*74

----------------------End------------------------
----------------------Begin------------------------
$GNZDA,213546.563,04,04,2023,,*4C
$GNRMC,213546.563,A,4339.6611,N,07923.5213,W,2.67,284.77,040423,,,A*6E
$GNVTG,284.77,T,,M,2.67,N,4.95,K,A*26
$GNGGA,213546.563,4339.6611,N,07923.5213,W,1,8,1.14,92.7,M,-35.1,M,,*4A
$GPGSA,A,3,11,06,17,19,20,12,,,,,,,1.48,1.14,0.94*0F
$BDGSA,A,3,14,1
----------------------End------------------------
----------------------Begin------------------------
$GNZDA,213551.363,04,04,2023,,*4C
$GNRMC,213551.363,A,4339.6639,N,07923.5246,W,3.08,316.66,040423,,,A*66
$GNVTG,316.66,T,,M,3.08,N,5.71,K,A*2F
$GNGGA,213551.363,4339.6639,N,07923.5246,W,1,8,1.14,92.7,M,-35.1,M,,*40
$GPGSA,A,3,11,06,17,19,20,12,,,,,,,1.48,1.14,0.94*0F
$BDGSA,A,3,14,1
----------------------End------------------------
----------------------Begin------------------------
$GNZDA,213556.563,04,04,2023,,*4D
$GNRMC,213556.563,A,4339.6676,N,07923.5285,W,2.95,290.13,040423,,,A*6B
$GNVTG,290.13,T,,M,2.95,N,5.46,K,A*23
$GNGGA,213556.563,4339.6676,N,07923.5285,W,1,8,1.14,93.3,M,-35.1,M,,*40
$GPGSA,A,3,11,06,17,19,20,12,,,,,,,1.48,1.14,0.94*0F
$BDGSA,A,3,14,1
----------------------End------------------------
----------------------Begin------------------------
$GNZDA,213601.363,04,04,2023,,*4
$GNGGA,213601.363,4339.6711,N,07923.5319,W,1,8,1.14,93.4,M,-35.1,M,,*44
$GPGSA,A,3,11,06,17,19,20,12,,,,,,,1.48,1.14,0.94*0F
$BDGSA,A,3,14,11,,,,,,,,,,,1.48,1.14,0.94*12
$GPGSV,2,1,08,06,74,022,49,19,61,088,44,11,54,256,30,12,42,302,44*72
$GPGSV,2,2,
----------------------End------------------------
----------------------Begin------------------------
$GNZDA,213606.563,04,04,2023,,*4B
$GNRMC,213606.563,A,4339.6746,N,07923.5348,W,2.90,337.84,040423,,,A*68
$GNVTG,337.84,T,,M,2.90,N,5.38,K,A*2D
$GNGGA,213606.563,4339.6746,N,07923.5348,W,1,8,1.14,93.1,M,-35.1,M,,*46
$GPGSA,A,3,11,06,17,19,20,12,,,,,,,1.48,1.14,0.94*0F
$BDGSA,A,3,14,1
----------------------End------------------------
----------------------Begin------------------------
$GNZDA,213611.763,04,04,2023,,*4F
$GNRMC,213611.763,A,4339.6781,N,07923.5373,W,3.15,340.82,040423,,,A*65
$GNVTG,340.82,T,,M,3.15,N,5.85,K,A*21
$GNGGA,213611.763,4339.6781,N,07923.5373,W,1,8,1.14,92.5,M,-35.1,M,,*44
$GPGSA,A,3,11,06,17,19,20,12,,,,,,,1.48,1.14,0.94*0F
$BDGSA,A,3,14,1
----------------------End------------------------
----------------------Begin------------------------
$GNZDA,213616.563,04,04,2023,,*4A
$GNRMC,213616.563,A,4339.6814,N,07923.5390,W,2.32,328.50,040423,,,A*6B
$GNVTG,328.50,T,,M,2.32,N,4.31,K,A*2A
$GNGGA,213616.563,4339.6814,N,07923.5390,W,1,8,1.14,91.8,M,-35.1,M,,*41
$GPGSA,A,3,11,06,17,19,20,12,,,,,,,1.48,1.14,0.94*0F
$BDGSA,A,3,14,1
----------------------End------------------------
----------------------Begin------------------------
$GNZDA,213621.763,04,04,2023,,*4C
$GNRMC,213621.763,A,4339.6853,N,07923.5408,W,2.71,333.99,040423,,,A*60
$GNVTG,333.99,T,,M,2.71,N,5.03,K,A*22
$GNGGA,213621.763,4339.6853,N,07923.5408,W,1,8,1.14,90.2,M,-35.1,M,,*49
$GPGSA,A,3,11,06,17,19,20,12,,,,,,,1.48,1.14,0.94*0F
$BDGSA,A,3,14,119,20,12,,,,,,,1.48,1.14,0.94*0F
$BDGSA,A,3,14,11,,,,,,,,,,,1.48,1.14,0.94*12
$GPGSV,2,1,08,06,74,023,37,19,61,088,36,11,54,257,31,12,42,302,31*7D
$GPGSV,2,2,08,17,35,104,33,51,32,217,,20,27,199,14,04,,,21*41
$BDGSV,1,1,04,11,39,078,36,14,36,132,33,23,21,218,13,21,19,044,18*65
$GNGLL,4339.6882,N,07923.5432,W,213626.563,A,A*51
$GPGRS,213626.563,1,0.92,-2.64,-3.89,3.42,-5.76,-0.34,-0.84,0.64,,,,*50
$GPGST,213626.563,2.1,9.3,3.8,13.0,9.1,4.2,30*76

----------------------End------------------------
----------------------Begin------------------------
$GNZDA,213626.963,04,04,2023,,*45
$GNRMC,213626.963,A,4339.6885,N,07923.5433,W,2.78,334.48,040423,,,A*68
$GNVTG,334.48,T,,M,2.78,N,5.15,K,A*27
$GNGGA,213626.963,4339.6885,N,07923.5433,W,1,8,1.14,89.0,M,-35.1,M,,*49
$GPGSA,A,3,11,06,17,19,20,12,,,,,,,1.48,1.14,0.94*0F
$BDGSA,A,3,14,1
----------------------End------------------------
----------------------Begin------------------------
$GNZDA,213631.763,04,04,2023,,*4D
$GNRMC,213631.763,A,4339.6925,N,07923.5449,W,3.05,346.14,040423,,,A*61
$GNVTG,346.14,T,,M,3.05,N,5.64,K,A*26
$GNGGA,213631.763,4339.6925,N,07923.5449,W,1,8,1.14,87.9,M,-35.1,M,,*40
$GPGSA,A,3,11,06,17,19,20,12,,,,,,,1.48,1.14,0.94*0F
$BDGSA,A,3,14,1
----------------------End------------------------
----------------------Begin------------------------
$GNZDA,213636.963,04,04,2023,,*44
$GNRMC,213636.963,A,4339.6961,N,07923.5457,W,3.32,341.43,040423,,,A*66
$GNVTG,341.43,T,,M,3.32,N,6.15,K,A*22
$GNGGA,213636.963,4339.6961,N,07923.5457,W,1,8,1.14,88.2,M,-35.1,M,,*42
$GPGSA,A,3,11,06,17,19,20,12,,,,,,,1.48,1.14,0.94*0F
$BDGSA,A,3,14,1
----------------------End------------------------
----------------------Begin------------------------
$GNZDA,213642.163,04,04,2023,,*4F
$GNRMC,213642.163,A,4339.7015,N,07923.5473,W,3.00,334.23,040423,,,A*65
$GNVTG,334.23,T,,M,3.00,N,5.57,K,A*22
$GNGGA,213642.163,4339.7015,N,07923.5473,W,1,8,1.14,89.7,M,-35.1,M,,*40
$GPGSA,A,3,11,06,17,19,20,12,,,,,,,1.48,1.14,0.94*0F
$BDGSA,A,3,14,1
----------------------End------------------------
----------------------Begin------------------------
$GNZDA,213646.963,04,04,2023,,*43
$GNRMC,213646.963,A,4339.7048,N,07923.5485,W,2.54,345.63,040423,,,A*6A
$GNVTG,345.63,T,,M,2.54,N,4.70,K,A*24
$GNGGA,213646.963,4339.7048,N,07923.5485,W,1,8,1.14,90.5,M,-35.1,M,,*47
$GPGSA,A,3,11,06,17,19,20,12,,,,,,,1.48,1.14,0.94*0F
$BDGSA,A,3,14,1
----------------------End------------------------
----------------------Begin------------------------
$GNZDA,213652.163,04,04,2023,,*4E
$GNRMC,213652.163,A,4339.7089,N,07923.5504,W,2.57,342.00,040423,,,A*63
$GNVTG,342.00,T,,M,2.57,N,4.76,K,A*23
$GNGGA,213652.163,4339.7089,N,07923.5504,W,1,8,1.15,90.5,M,-35.1,M,,*4E
$GPGSA,A,3,11,06,17,19,20,12,,,,,,,1.48,1.15,0.95*0F
$BDGSA,A,3,14,1
----------------------End------------------------
----------------------Begin------------------------
$GNZDA,213656.963,04,04,2023,,*4,,,,,,,1.49,1.15,0.95*0E
$BDGSA,A,3,14,11,,,,,,,,,,,1.49,1.15,0.95*13
$GPGSV,2,1,07,06,74,023,45,19,61,088,40,11,54,257,45,12,42,302,42*71
$GPGSV,2,2,07,17,35,104,35,51,32,217,,20,27,199,27*4F
$BDGSV,1,1,04,11,39,078,39,14,36,132,23,23,21,218,30,21,19,
----------------------End------------------------
----------------------Begin------------------------
$GNZDA,213702.163,04,04,2023,,*4A
$GNRMC,213702.163,A,4339.7163,N,07923.5564,W,2.97,338.93,040423,,,A*6F
$GNVTG,338.93,T,,M,2.97,N,5.50,K,A*2D
$GNGGA,213702.163,4339.7163,N,07923.5564,W,1,8,1.15,90.1,M,-35.1,M,,*4D
$GPGSA,A,3,11,06,17,19,20,12,,,,,,,1.49,1.15,0.95*0E
$BDGSA,A,3,14,1
----------------------End------------------------
----------------------Begin------------------------
$GNZDA,213707.363,04,04,2023,,*4D
$GNRMC,213707.363,A,4339.7208,N,07923.5594,W,3.32,340.92,040423,,,A*69
$GNVTG,340.92,T,,M,3.32,N,6.15,K,A*2F
$GNGGA,213707.363,4339.7208,N,07923.5594,W,1,8,1.15,89.9,M,-35.1,M,,*4B
$GPGSA,A,3,11,06,17,19,20,12,,,,,,,1.49,1.15,0.95*0E
$BDGSA,A,3,14,1
----------------------End------------------------
----------------------Begin------------------------
$GNZDA,213712.163,04,04,2023,,*4B
$GNRMC,213712.163,A,4339.7243,N,07923.5619,W,3.05,332.18,040423,,,A*65
$GNVTG,332.18,T,,M,3.05,N,5.64,K,A*29
$GNGGA,213712.163,4339.7243,N,07923.5619,W,1,8,1.15,89.3,M,-35.1,M,,*4E
$GPGSA,A,3,11,06,17,19,20,12,,,,,,,1.49,1.15,0.95*0E
$BDGSA,A,3,14,1
----------------------End------------------------
----------------------Begin------------------------
$GNZDA,213717.363,04,04,2023,,*4C
$GNRMC,213717.363,A,4339.7275,N,07923.5641,W,2.82,323.27,040423,,,A*68
$GNVTG,323.27,T,,M,2.82,N,5.22,K,A*29
$GNGGA,213717.363,4339.7275,N,07923.5641,W,1,8,1.15,88.7,M,-35.1,M,,*44
$GPGSA,A,3,11,06,17,19,20,12,,,,,,,1.49,1.15,0.95*0E
$BDGSA,A,3,14,1
----------------------End------------------------
----------------------Begin------------------------
$GNZDA,213722.563,04,04,2023,,*4C
$GNRMC,213722.563,A,4339.7305,N,07923.5670,W,2.90,338.42,040423,,,A*66
$GNVTG,338.42,T,,M,2.90,N,5.38,K,A*28
$GNGGA,213722.563,4339.7305,N,07923.5670,W,1,8,1.15,88.2,M,-35.1,M,,*45
$GPGSA,A,3,11,06,17,19,20,12,,,,,,,1.49,1.15,0.95*0E
$BDGSA,A,3,14,1
----------------------End------------------------
----------------------Begin------------------------
$GNZDA,213727.363,04,04,2023,,*4F
$GNRMC,213727.363,A,4339.7334,N,07923.5698,W,2.70,334.51,040423,,,A*61
$GNVTG,334.51,T,,M,2.70,N,5.00,K,A*23
$GNGGA,213727.363,4339.7334,N,07923.5698,W,1,8,1.15,87.2,M,-35.1,M,,*4D
$GPGSA,A,3,11,06,17,19,20,12,,,,,,,1.49,1.15,0.95*0E
$BDGSA,A,3,14,1
----------------------End------------------------
----------------------Begin------------------------
$GNZDA,213732.563,04,04,2023,,*4D
$GNRMC,213732.563,A,4339.7374,N,07923.5727,W,2.78,343.71,040423,,,A*68
$GNVTG,343.71,T,,M,2.78,N,5.16,K,A*2E
$GNGGA,213732.563,4339.7374,N,07923.5727,W,1,8,1.15,86.7,M,-35.1,M,,*4A
$GPGSA,A,3,11,06,17,19,20,12,,,,,,,1.49,1.15,0.95*0E
$BDGSA,A,3,14,13,04,04,2023,,*4E
$GNRMC,213737.363,A,4339.7415,N,07923.5756,W,2.98,328.38,040423,,,A*63
$GNVTG,328.38,T,,M,2.98,N,5.53,K,A*21
$GNGGA,213737.363,4339.7415,N,07923.5756,W,1,8,1.15,85.8,M,-35.1,M,,*43
$GPGSA,A,3,11,06,17,19,20,12,,,,,,,1.49,1.15,0.95*0E
$BDGSA,A,3,14,11,,,,,,,,,,,1.49,1.15,0.95*13
$GPGSV,2,1,07,06,73,023,46,19,61,089,40,11,55,257,43,12,42,301,28*7C
$GPGSV,2,2,07,17,35,104,35,20,27,199,29,38,,,*7B
$BDGSV,1,1,04,11,39,078,35,14,36,132,28,23,20,218,28,21,19,043,21*68
$GNGLL,4339.7415,N,07923.5756,W,213737.363,A,A*54
$GPGRS,213737.363,1,-0.33,-1.63,-5.60,0.75,-3.41,-1.24,-1.77,0.72,,,,*7B
$GPGST,213737.363,2.3,7.2,3.7,05.7,7.2,3.8,30*73

----------------------End------------------------
----------------------Begin------------------------
$GNZDA,213737.763,04,04,2023,,*4A
$GNRMC,213737.763,A,4339.7418,N,07923.5760,W,2.93,319.65,040423,,,A*6E
$GNVTG,319.65,T,,M,2.93,N,5.43,K,A*21
$GNGGA,213737.763,4339.7418,N,07923.5760,W,1,8,1.15,85.7,M,-35.1,M,,*40
$GPGSA,A,3,11,06,17,19,20,12,,,,,,,1.49,1.15,0.95*0E
$BDGSA,A,3,14,1
----------------------End------------------------
----------------------Begin------------------------
$GNZDA,213742.563,04,04,2023,,*4A
$GNRMC,213742.563,A,4339.7463,N,07923.5785,W,3.87,339.26,040423,,,A*68
$GNVTG,339.26,T,,M,3.87,N,7.17,K,A*23
$GNGGA,213742.563,4339.7463,N,07923.5785,W,1,8,1.15,86.1,M,-35.1,M,,*42
$GPGSA,A,3,11,06,17,19,20,12,,,,,,,1.49,1.15,0.95*0E
$BDGSA,A,3,14,1
----------------------End------------------------
----------------------Begin------------------------
$GNZDA,213747.763,04,04,2023,,*4D
$GNRMC,213747.763,A,4339.7501,N,07923.5810,W,3.23,350.70,040423,,,A*6B
$GNVTG,350.70,T,,M,3.23,N,5.98,K,A*24
$GNGGA,213747.763,4339.7501,N,07923.5810,W,1,8,1.15,87.2,M,-35.1,M,,*41
$GPGSA,A,3,11,06,17,19,20,12,,,,,,,1.49,1.15,0.95*0E
$BDGSA,A,3,14,152.563,A,A*52
$GPGRS,213752.563,1,-0.91,-1.79,-4.49,2.22,-0.08,0.08,0.45,-0.20,,,,*5C
$GPGST,213752.563,2.4,7.9,3.6,09.6,7.8,3.8,30*7C

----------------------End------------------------
----------------------Begin------------------------
$GNZDA,213752.963,04,04,2023,,*47
$GNRMC,213752.963,A,4339.7544,N,07923.5843,W,3.80,331.36,040423,,,A*6A
$GNVTG,331.36,T,,M,3.80,N,7.04,K,A*2F
$GNGGA,213752.963,4339.7544,N,07923.5843,W,1,8,1.35,88.8,M,-35.1,M,,*4B
$GPGSA,A,3,11,06,17,19,20,12,,,,,,,3.21,1.35,2.92*05
$BDGSA,A,3,14,1
----------------------End------------------------
----------------------Begin------------------------
$GNZDA,213757.763,04,04,2023,,*4C
$GNRMC,213757.763,A,4339.7579,N,07923.5863,W,3.15,334.19,040423,,,A*69
$GNVTG,334.19,T,,M,3.15,N,5.83,K,A*26
$GNGGA,213757.763,4339.7579,N,07923.5863,W,1,8,1.15,91.6,M,-35.1,M,,*48
$GPGSA,A,3,11,06,17,19,20,12,,,,,,,1.49,1.15,0.95*0E
$BDGSA,A,3,14,1
----------------------End------------------------
----------------------Begin------------------------
$GNZDA,213802.963,04,04,2023,,*4D
$GNRMC,213802.963,A,4339.7623,N,07923.5884,W,3.31,337.08,040423,,,A*68
$GNVTG,337.08,T,,M,3.31,N,6.13,K,A*29
$GNGGA,213802.963,4339.7623,N,07923.5884,W,1,8,1.15,95.2,M,-35.1,M,,*4C
$GPGSA,A,3,11,06,17,19,20,12,,,,,,,1.49,1.15,0.95*0E
$BDGSA,A,3,14,1PGSV,2,1,07,06,73,024,46,19,60,090,41,11,55,258,46,12,42,301,44*73
$GPGSV,2,2,07,17,35,105,35,20,28,199,24,46,,,29*7A
$BDGSV,1,1,04,28,46,291,42,11,38,078,36,14,37,131,30,23,20,218,31*62
$GNGLL,4339.7658,N,07923.5897,W,213807.763,A,A*55
$GPGRS,213807.763,1,0.26,-2.15,0.80,4.07,4.76,0.05,-0.43,0.26,,,,*79
$GPGST,213807.763,2.4,8.1,3.5,09.9,8.0,3.7,30*72

----------------------End------------------------
----------------------Begin------------------------
$GNZDA,213808.163,04,04,2023,,*4F
$GNRMC,213808.163,A,4339.7661,N,07923.5898,W,3.12,351.44,040423,,,A*68
$GNVTG,351.44,T,,M,3.12,N,5.77,K,A*21
$GNGGA,213808.163,4339.7661,N,07923.5898,W,1,8,1.15,97.7,M,-35.1,M,,*42
$GPGSA,A,3,11,06,17,19,20,12,,,,,,,1.49,1.15,0.95*0E
$BDGSA,A,3,14,1
----------------------End------------------------
----------------------Begin------------------------
$GNZDA,213812.963,04,04,2023,,*4C
$GNRMC,213812.963,A,4339.7696,N,07923.5914,W,3.55,341.74,040423,,,A*67
$GNVTG,341.74,T,,M,3.55,N,6.57,K,A*21
$GNGGA,213812.963,4339.7696,N,07923.5914,W,1,8,1.15,99.6,M,-35.1,M,,*43
$GPGSA,A,3,11,06,17,19,20,12,,,,,,,1.49,1.15,0.95*0E
$BDGSA,A,3,14,1
----------------------End------------------------
----------------------Begin------------------------
$GNZDA,213818.163,04,04,2023,,*4E
$GNRMC,213818.163,A,4339.7742,N,07923.5933,W,3.36,345.31,040423,,,A*68
$GNVTG,345.31,T,,M,3.36,N,6.22,K,A*23
$GNGGA,213818.163,4339.7742,N,07923.5933,W,1,8,1.15,102.2,M,-35.1,M,,*7B
$GPGSA,A,3,11,06,17,19,20,12,,,,,,,1.49,1.15,0.95*0E
$BDGSA,A,3,14,
----------------------End------------------------
----------------------Begin------------------------
$GNZDA,213822.963,04,04,2023,,*4213822.963,4339.7779,N,07923.5941,W,1,8,1.15,103.5,M,-35.1,M,,*71
$GPGSA,A,3,11,06,17,19,20,12,,,,,,,1.49,1.15,0.95*0E
$BDGSA,A,3,14,11,,,,,,,,,,,1.49,1.15,0.95*13
$GPGSV,2,1,07,06,73,024,46,19,60,090,42,11,55,258,46,12,42,301,43*77
$GPGSV,2,2,07,17,35
----------------------End------------------------
----------------------Begin------------------------
$GNZDA,213828.163,04,04,2023,,*4D
$GNRMC,213828.163,A,4339.7830,N,07923.5959,W,3.85,342.16,040423,,,A*67
$GNVTG,342.16,T,,M,3.85,N,7.14,K,A*2D
$GNGGA,213828.163,4339.7830,N,07923.5959,W,1,8,1.36,104.7,M,-35.1,M,,*7C
$GPGSA,A,3,11,06,17,19,20,12,,,,,,,3.23,1.36,2.93*05
$BDGSA,A,3,14,
----------------------End------------------------
----------------------Begin------------------------
$GNZDA,213833.363,04,04,2023,,*45
$GNRMC,213833.363,A,4339.7868,N,07923.5971,W,2.61,337.98,040423,,,A*67
$GNVTG,337.98,T,,M,2.61,N,4.84,K,A*28
$GNGGA,213833.363,4339.7868,N,07923.5971,W,1,8,1.15,104.9,M,-35.1,M,,*7C
$GPGSA,A,3,11,06,17,19,20,12,,,,,,,1.49,1.15,0.95*0E
$BDGSA,A,3,14,
----------------------End------------------------
----------------------Begin------------------------
$GNZDA,213838.163,04,04,2023,,*4C
$GNRMC,213838.163,A,4339.7908,N,07923.5983,W,3.09,336.96,040423,,,A*64
$GNVTG,336.96,T,,M,3.09,N,5.72,K,A*20
$GNGGA,213838.163,4339.7908,N,07923.5983,W,1,8,1.15,104.7,M,-35.1,M,,*71
$GPGSA,A,3,11,06,17,19,20,12,,,,,,,1.49,1.15,0.95*0E
$BDGSA,A,3,14,
----------------------End------------------------
----------------------Begin------------------------
$GNZDA,213843.363,04,04,2023,,*42
$GNRMC,213843.363,A,4339.7953,N,07923.6001,W,3.06,347.47,040423,,,A*61
$GNVTG,347.47,T,,M,3.06,N,5.67,K,A*21
$GNGGA,213843.363,4339.7953,N,07923.6001,W,1,8,1.15,104.2,M,-35.1,M,,*74
$GPGSA,A,3,11,06,17,19,20,12,,,,,,,1.49,1.15,0.95*0E
$BDGSA,A,3,14,94*11
$GPGSV,2,1,07,06,73,025,45,19,60,090,41,11,55,258,45,12,43,301,39*79
$GPGSV,2,2,07,17,35,105,30,20,28,199,28,48,17,243,29*4E
$BDGSV,1,1,04,28,46,292,36,11,38,079,29,14,37,131,28,23,20,218,29*6D
$GNGLL,4339.7989,N,07923.6014,W,213848.163,A,A*5B
$GPGRS,213848.163,1,0.90,-3.38,0.53,2.37,-2.15,1.93,0.48,-0.70,0.37,,,*4E
$GPGST,213848.163,2.3,7.1,3.4,10.3,7.0,3.5,29*71

----------------------End------------------------
----------------------Begin------------------------
$GNZDA,213848.563,04,04,2023,,*4F
$GNRMC,213848.563,A,4339.7992,N,07923.6015,W,3.16,350.33,040423,,,A*60
$GNVTG,350.33,T,,M,3.16,N,5.86,K,A*2A
$GNGGA,213848.563,4339.7992,N,07923.6015,W,1,9,1.10,103.8,M,-35.1,M,,*78
$GPGSA,A,3,11,06,17,19,20,12,,,,,,,1.45,1.10,0.94*06
$BDGSA,A,3,14,
----------------------End------------------------
----------------------Begin------------------------
$GNZDA,213853.363,04,04,2023,,*43
$GNRMC,213853.363,A,4339.8031,N,07923.6025,W,3.38,352.09,040423,,,A*67
$GNVTG,352.09,T,,M,3.38,N,6.27,K,A*25
$GNGGA,213853.363,4339.8031,N,07923.6025,W,1,9,1.10,104.0,M,-35.1,M,,*77
$GPGSA,A,3,11,06,17,19,20,12,,,,,,,1.45,1.10,0.94*06
$BDGSA,A,3,14,
----------------------End------------------------
----------------------Begin------------------------
$GNZDA,213858.563,04,04,2023,,*4E
$GNRMC,213858.563,A,4339.8067,N,07923.6049,W,3.18,324.22,040423,,,A*69
$GNVTG,324.22,T,,M,3.18,N,5.89,K,A*28
$GNGGA,213858.563,4339.8067,N,07923.6049,W,1,9,1.10,104.1,M,-35.1,M,,*72
$GPGSA,A,3,11,06,17,19,20,12,,,,,,,1.45,1.10,0.94*06
$BDGSA,A,3,14,
----------------------End------------------------
----------------------Begin------------------------
$GNZDA,213903.763,04,04,2023,,*43
$GNRMC,213903.763,A,4339.8112,N,07923.6066,W,3.09,339.59,040423,,,A*6A
$GNVTG,339.59,T,,M,3.09,N,5.72,K,A*2C
$GNGGA,213903.763,4339.8112,N,07923.6066,W,1,9,1.10,103.0,M,-35.1,M,,*77
$GPGSA,A,3,11,06,17,19,20,12,,,,,,,1.45,1.10,0.94*06
$BDGSA,A,3,14,
----------------------End------------------------
----------------------Begin------------------------
$GNZDA,213908.563,04,04,2023,,*4A
$GNRMC,213908.563,A,4339.8154,N,07923.6085,W,3.00,342.48,040423,,,A*69
$GNVTG,342.48,T,,M,3.00,N,5.56,K,A*2F
$GNGGA,213908.563,4339.8154,N,07923.6085,W,1,9,1.10,102.4,M,-35.1,M,,*74
$GPGSA,A,3,11,06,17,19,20,12,,,,,,,1.45,1.10,0.94*06
$BDGSA,A,3,14,
----------------------End------------------------
----------------------Begin------------------------
$GNZDA,213913.763,04,04,2023,,*42
